[
  {
    "No": 1,
    "Id": "a4c042e7-665b-41d9-a5c3-4bee66d69dd1",
    "Hospital": "BIMC Kuta",
    "Hospital_2": null,
    "Alias": "BIMC Kuta",
    "Address": "Jl. Bypass Ngurah Rai No.100X, Kuta, Kec. Kuta, Kabupaten Badung, Bali 80361",
    "District": "Kuta",
    "City": "Badung",
    "Province": "Bali",
    "Slug": "bimc-kuta",
    "lng": 115.195652,
    "lat": -8.775159
  },
  {
    "No": 2,
    "Id": "da3b47c6-c976-446f-8cbf-aa71fe1c6614",
    "Hospital": "BIMC Nusa Dua",
    "Hospital_2": null,
    "Alias": "BIMC Nusa Dua",
    "Address": "Kawasan ITDC Blok D, Jl. Nusa Dua, Benoa, Kec. Kuta Sel., Kabupaten Badung, Bali 80363",
    "District": "Kuta Selatan",
    "City": "Badung",
    "Province": "Bali",
    "Slug": "bimc-hospital-nusa-dua",
    "lng": 115.2284611,
    "lat": -8.7993745
  },
  {
    "No": 3,
    "Id": "beba4c15-72d4-473a-bb9e-6dc26c0c9052",
    "Hospital": "MRCCC Siloam Hospitals Semanggi",
    "Hospital_2": null,
    "Alias": "MRCCC",
    "Address": "Jl. Garnisun 1 No.2-3, RT.5/RW.4, Karet Semanggi, Kecamatan Setiabudi, Kota Jakarta Selatan, Daerah Khusus Ibukota Jakarta 12930",
    "District": "Semanggi",
    "City": "Jakarta Selatan",
    "Province": "DKI Jakarta",
    "Slug": "mrccc-siloam-hospitals-semanggi",
    "lng": 106.817158,
    "lat": -6.219056
  },
  {
    "No": 4,
    "Id": "81d7771f-f4ca-49ff-92cf-dd6c4ce7aa12",
    "Hospital": "Siloam Heart Hospital",
    "Hospital_2": null,
    "Alternatif_name":"RS Jantung Diagram Cinere",
    "Alias": "SHCN",
    "Address": "Jl. Cinere Raya No. 19 Puri Cinere, Depok",
    "District": "Cinere",
    "City": "Depok",
    "Province": "Jawa Barat",
    "Slug": "siloam-heart-hospital",
    "lng": 106.783197,
    "lat": -6.321861
  },
  {
    "No": 5,
    "Id": "d2f3bddc-62a2-45af-977f-77a1e15e62d9",
    "Hospital": "RSU Syubbanul Wathon",
    "Hospital_2": null,
    "Alias": "RSUSW",
    "Address": "Jl. Magelang - Kopeng km 08 Tegalrejo Kabupaten Magelang 56192",
    "District": "Tegalrejo",
    "City": "Magelang",
    "Province": "Jawa Tengah",
    "Slug": "rumah-sakit-umum-syubbanul-wathon",
    "lng": 110.257572,
    "lat": -7.464978
  },
  {
    "No": 6,
    "Id": "2f80922d-fa65-4058-b173-f4b61914dfa2",
    "Hospital": "SILOAM CLINIC SOE",
    "Hospital_2": null,
    "Alias": "SCSOE",
    "Address": "Jl. Proklamasi, RT 003 RW 02, Kelurahan Taubneno, Kecamatan Kota Soe",
    "District": "Kota SOE",
    "City": "Timor Tengah Selatan",
    "Province": "Nusa Tenggara Timur",
    "Slug": "",
    "lng": 124.2811771,
    "lat": -9.8620835
  },
  {
    "No": 7,
    "Id": "f3360448-d4f9-4e8c-80a8-136f46eb994f",
    "Hospital": "Siloam Hospitals Agora Cempaka Putih",
    "Hospital_2": null,
    "Alias": "SHAG",
    "Address": "Holland Village Jakarta, Jalan Letjen. Suprapto Kav.60 No.1, RT.10/RW.7, Cemp. Putih Tim., Kec. Cemp. Putih, Jakarta, Daerah Khusus Ibukota Jakarta 10510",
    "District": "Cempaka Putih",
    "City": "Jakarta Pusat",
    "Province": "DKI Jakarta",
    "Slug": "siloam-hospitals-agora", 
    "lng": 106.809693,
    "lat": -6.236921
  },
  {
    "No": 8,
    "Id": "d27bc94c-ba25-49e1-ac41-beb3996bbc61",
    "Hospital": "Siloam Hospitals Ambon",
    "Hospital_2": null,
    "Alias": "SHAB",
    "Address": "Jl. Sultan Hasanudin No.Kel, Hative Kecil, Kec. Sirimau, Kota Ambon, Maluku, 97118, Indonesia",
    "District": "Sirimau",
    "City": "Ambon",
    "Province": "Maluku",
    "Slug": "siloam-hospitals-ambon",
    "lng": 128.101811,
    "lat": -3.628754
  },
  {
    "No": 9,
    "Id": "598f5450-7e37-460e-aa08-3e354371770c",
    "Hospital": "Siloam Hospitals ASRI",
    "Hospital_2": null,
    "Alias": "SH ASRI",
    "Address": "Jl. Duren Tiga Raya No. 20, Duren Tiga, Jakarta Selatan",
    "District": "Duren Tiga",
    "City": "Jakarta Selatan",
    "Province": "DKI Jakarta",
    "Slug": "siloam-hospitals-asri",
    "lng": 106.832324,
    "lat": -6.25452
  },
  {
    "No": 10,
    "Id": "c279e92e-57c3-47ad-8ce5-397b4fe8b6f7",
    "Hospital": "Siloam Hospitals Balikpapan",
    "Hospital_2": null,
    "Alias": "SHBP",
    "Address": "Jl. MT Haryono No.23, Damai, Kecamatan Balikpapan Selatan, Kota Balikpapan, Kalimantan Timur 76114",
    "District": "Sungai Nangka",
    "City": "Balikpapan Selatan",
    "Province": "Kalimantan Timur",
    "Slug": "siloam-hospitals-balikpapan",
    "lng": 116.870315,
    "lat": -1.252241
  },
  {
    "No": 11,
    "Id": "4cf6c0fd-6a7f-4ce8-aac9-a5686eac8ad6",
    "Hospital": "Siloam Hospitals Bangka Belitung",
    "Hospital_2": "RUMAH SAKIT SILOAM BANGKA",
    "Alias": "SHBB",
    "Address": "Jl. Soekarno Hatta No.6, Dul, Kec. Pangkalan Baru, Kabupaten Bangka Tengah, Kepulauan Bangka Belitung 33684",
    "District": "Pangkalan Baru",
    "City": "Bangka Tengah",
    "Province": "Kepulauan Bangka Belitung",
    "Slug": "siloam-hospitals-bangka",
    "lng": 106.129595,
    "lat": -2.153137
  },
  {
    "No": 12,
    "Id": "a0554ddc-e541-4640-9dc3-e102b97d454a",
    "Hospital": "Siloam Hospitals Banjarmasin",
    "Hospital_2": null,
    "Alias": "SHBJ",
    "Address": "Jl. A. Yani, Sungai Baru, Kec. Banjarmasin Tengah, Kota Banjarmasin, Kalimantan Selatan 70122",
    "District": "Banjarmasin Tengah",
    "City": "Banjarmasin",
    "Province": "Kalimantan Selatan",
    "Slug": "siloam-hospitals-banjarmasin",
    "lng": 114.6047237,
    "lat": -3.325042503
  },
  {
    "No": 13,
    "Id": "2f7446d2-91b3-4e78-bcce-6a749813a842",
    "Hospital": "Siloam Hospitals Bekasi Sepanjang Jaya",
    "Hospital_2": null,
    "Alias": "SHBS",
    "Address": "Jl. Pramuka No.12, RT.004/RW.002, Sepanjang Jaya, Kec. Rawalumbu, Kota Bks, Jawa Barat 17114",
    "District": "Rawalumbu",
    "City": "Bekasi",
    "Province": "Jawa Barat",
    "Slug": "rumah-sakit-siloam-bekasi-sepanjang-jaya",
    "lng": 106.998784,
    "lat": -6.269667
  },
  {
    "No": 14,
    "Id": "e07a3118-a98b-433f-98fb-eb2fcdb1b514",
    "Hospital": "Siloam Hospitals Bekasi Timur",
    "Hospital_2": null,
    "Alias": "SHBT",
    "Address": "Jl. Chairil Anwar No.27-36, RT.004/RW.009, Margahayu, Kec. Bekasi Tim., Kota Bks, Jawa Barat 17113",
    "District": "Margahayu",
    "City": "Bekasi Timur",
    "Province": "Jawa Barat",
    "Slug": "rumah-sakit-siloam-bekasi-timur",
    "lng": 107.008371,
    "lat": -6.256691
  },
  {
    "No": 15,
    "Id": "80d359a6-57e2-47f6-bcad-36806931c925",
    "Hospital": "Siloam Hospitals Bogor",
    "Hospital_2": null,
    "Alias": "SHBG",
    "Address": "Jl. Pajajaran No.27, RT.03/RW.08, Babakan, Kecamatan Bogor Tengah, Kota Bogor, Jawa Barat 14140",
    "District": "Babakan",
    "City": "Bogor",
    "Province": "Jawa Barat",
    "Slug": "siloam-hospitals-bogor",
    "lng": 106.804971,
    "lat": -6.595537
  },
  {
    "No": 16,
    "Id": "1a013f71-2ff0-4acc-82b2-20f8c37a2aea",
    "Hospital": "Siloam Hospitals Buton",
    "Hospital_2": null,
    "Alias": "SHBN",
    "Address": "Jl. Sultan Hasanuddin No.58, Batulo, Kec. Wolio, Kota Bau-Bau, Sulawesi Tenggara 93716",
    "District": "Wolio",
    "City": "Bau Bau",
    "Province": "Sulawesi Tenggara",
    "Slug": "siloam-hospitals-buton",
    "lng": 122.618607,
    "lat": -5.460583
  },
  {
    "No": 17,
    "Id": "49a1ef75-2bdb-4586-b287-557929a7d873",
    "Hospital": "Siloam Hospitals Denpasar",
    "Hospital_2": null,
    "Alias": "SHDP",
    "Address": "Jl. Sunset Road No.818, Kuta, Kec. Kuta, Kabupaten Badung, Bali 80361",
    "District": "Kuta",
    "City": "Badung",
    "Province": "Bali",
    "Slug": "siloam-hospitals-denpasar",
    "lng": 115.185362,
    "lat": -8.714967
  },
  {
    "No": 18,
    "Id": "f0a2533f-a05a-44ba-b8c5-bafef105fed8",
    "Hospital": "Siloam Hospitals Jambi",
    "Hospital_2": null,
    "Alias": "SHJB",
    "Address": "Jl. Soekarno-Hatta, Paal Merah, Kec. Jambi Sel., Kota Jambi, Jambi 36139",
    "District": "Jambi Selatan",
    "City": "Jambi",
    "Province": "Jambi",
    "Slug": "siloam-hospitals-jambi",
    "lng": 103.635697,
    "lat": -1.628503
  },
  {
    "No": 19,
    "Id": "ae89651b-d83a-44eb-90b6-1bfbe2c859c6",
    "Hospital": "Siloam Hospitals Jember",
    "Hospital_2": null,
    "Alias": "SHJR",
    "Address": "Jl. Gajah Mada No.104, Kb. Kidul, Jember Kidul, Kec. Kaliwates, Kabupaten Jember, Jawa Timur 68131",
    "District": "Kaliwates",
    "City": "Jember",
    "Province": "Jawa Timur",
    "Slug": "siloam-hospitals-jember",
    "lng": 113.687472,
    "lat": -8.173912
  },
  {
    "No": 20,
    "Id": "5588f248-6f45-4968-9009-13ee8f3bd5ec",
    "Hospital": "Siloam Hospitals Kebon Jeruk",
    "Hospital_2": null,
    "Alias": "SHKJ",
    "Address": "Jl. Perjuangan No.8, RT.14/RW.10, Kb. Jeruk, Kec. Kb. Jeruk, Kota Jakarta Barat, Daerah Khusus Ibukota Jakarta 11530",
    "District": "Kebon Jeruk",
    "City": "Jakarta Barat",
    "Province": "DKI Jakarta",
    "Slug": "siloam-hospitals-kebon-jeruk",
    "lng": 106.763534,
    "lat": -6.190833
  },
  {
    "No": 21,
    "Id": "65a60870-beab-4925-94ad-4a5246e26d6a",
    "Hospital": "Siloam Hospitals Kelapa Dua",
    "Hospital_2": null,
    "Alias": "SHKD",
    "Address": "Jl. Kelapa Dua Raya No.1001, Klp. Dua, Kec. Klp. Dua, Kabupaten Tangerang, Banten 15810",
    "District": "Kelapa Dua",
    "City": "Tangerang",
    "Province": "Banten",
    "Slug": "siloam-hospitals-kelapa-dua",
    "lng": 106.610769,
    "lat": -6.241162
  },
  {
    "No": 22,
    "Id": "5cbfbe52-164f-4471-aa56-018e47502274",
    "Hospital": "Siloam Hospitals Kupang",
    "Hospital_2": null,
    "Alias": "SHKP",
    "Address": "Jl. R. W. Monginsidi, Fatululi, Kec. Oebobo, Kota Kupang, Nusa Tenggara Tim.",
    "District": "Fatululi",
    "City": "Oebobo",
    "Province": "Nusa Tenggara Timur",
    "Slug": "siloam-hospitals-kupang",
    "lng": 123.610358,
    "lat": -10.157352
  },
  {
    "No": 23,
    "Id": "4c54e7ba-a8d3-4c24-a8a1-526b1a275855",
    "Hospital": "Siloam Hospitals Labuan Bajo",
    "Hospital_2": null,
    "Alias": "SHLB",
    "Address": "Jl. Gabriel Gampur Desa Gorontalo, Labuan Bajo, Komodo, West Manggarai Regency, East Nusa Tenggara 86754",
    "District": "Komodo",
    "City": "Manggarai Barat",
    "Province": "Nusa Tenggara Timur",
    "Slug": "siloam-hospitals-labuan-bajo",
    "lng": 119.884191,
    "lat": -8.496489
  },
  {
    "No": 24,
    "Id": "153b75ee-dc07-4290-ad55-d4d28457780f",
    "Hospital": "Siloam Hospitals Lippo Cikarang",
    "Hospital_2": null,
    "Alias": "SHLC",
    "Address": "Jl. MH. Thamrin No.Kav. 105, Cibatu, Cikarang Sel., Kabupaten Bekasi, Jawa Barat 17530",
    "District": "Cikarang",
    "City": "Bekasi",
    "Province": "Jawa Barat",
    "Slug": "siloam-hospitals-lippo-cikarang",
    "lng": 107.135081,
    "lat": -6.331552
  },
  {
    "No": 25,
    "Id": "39764039-37b9-4176-a025-ef7b2e124ba4",
    "Hospital": "Siloam Hospitals Lippo Village",
    "Hospital_2": null,
    "Alias": "SHLV",
    "Address": "Jl. Siloam Lippo Karawaci No.6, Bencongan, Kec. Klp. Dua, Kabupaten Tangerang, Banten 15810",
    "District": "Karawaci",
    "City": "Tangerang",
    "Province": "Banten",
    "Slug": "siloam-hospitals-lippo-village",
    "lng": 106.597845,
    "lat": -6.225437
  },
  {
    "No": 26,
    "Id": "0344e546-ffbd-41e7-ab59-bdf8de74bc89",
    "Hospital": "Siloam Hospitals Lubuk Linggau",
    "Hospital_2": null,
    "Alias": "SHLL",
    "Address": "Jl. Yos Sudarso No.RT.11, Taba Jemekeh, Kec. Lubuk Linggau Tim. I, Kota Lubuklinggau, Sumatera Selatan 31613",
    "District": "Taba Jemekeh",
    "City": "Lubuk Linggau",
    "Province": "Sumatera Selatan",
    "Slug": "rumah-sakit-siloam-silampari",
    "lng": 102.877647,
    "lat": -3.28789
  },
  {
    "No": 27,
    "Id": "253c529a-d4aa-477d-81f9-27fee6b04d5c",
    "Hospital": "Siloam Hospitals Makassar",
    "Hospital_2": null,
    "Alias": "SHMK",
    "Address": "JALAN METRO TANJUNG BUNGA KAV. 9 TANJUNG MERDEKA - TAMALATE MAKASSAR",
    "District": "Tanjung Merdeka",
    "City": "Makassar",
    "Province": "Sulawesi Selatan",
    "Slug": "siloam-hospitals-makassar",
    "lng": 119.407089,
    "lat": -5.150179
  },
  {
    "No": 28,
    "Id": "7bfbdce7-aa14-41ea-99d4-39f760c7cda1",
    "Hospital": "Siloam Hospitals Mampang",
    "Hospital_2": null,
    "Alias": "SHMA",
    "Address": "JL. Mampang Prapatan XVI, Kel. Duren Tiga, Kec. Pancoran, Kota Adm. Jakarta Selatan, Prov. DKI Jakarta",
    "District": "Pancoran",
    "City": "Jakarta Selatan",
    "Province": "DKI Jakarta",
    "Slug": "siloam-hospitals-mampang",
    "lng": 106.8241244,
    "lat": -6.2532373
  },
  {
    "No": 29,
    "Id": "63c6af56-bb9a-4962-a698-454d3345630d",
    "Hospital": "Siloam Hospitals Manado",
    "Hospital_2": null,
    "Alias": "SHMN",
    "Address": "Jl. Sam Ratulangi No.22, Wenang Utara, Kec. Wenang, Kota Manado, Sulawesi Utara",
    "District": "Wenang",
    "City": "Manado",
    "Province": "Sulawesi Utara",
    "Slug": "siloam-hospitals-manado",
    "lng": 124.837615,
    "lat": 1.487495
  },
  {
    "No": 30,
    "Id": "365e1f45-2d61-45bd-82fe-662e9474c60f",
    "Hospital": "Siloam Hospitals Mataram",
    "Hospital_2": null,
    "Alias": "SHMT",
    "Address": "Jl. Majapahit No.10, Pagesangan, Kec. Mataram, Kota Mataram, Nusa Tenggara Bar. 83115",
    "District": "Pagesangan",
    "City": "Mataram",
    "Province": "Nusa Tenggara Barat",
    "Slug": "siloam-hospitals-mataram",
    "lng": 116.098619,
    "lat": -8.59422
  },
  {
    "No": 31,
    "Id": "7bf8f504-dd72-4248-ac00-5dcb2f261c50",
    "Hospital": "Siloam Hospitals Medan",
    "Hospital_2": "Siloam Hospitals Dhirga Surya Medan",
    "Alias": "SHMD",
    "Address": "Jl. Imam Bonjol No.6, Petisah Tengah, Kec. Medan Petisah, Kota Medan, Sumatera Utara 20212",
    "District": "Medan Petisah",
    "City": "Medan",
    "Province": "Sumatera Utara",
    "Slug": "rumah-sakit-siloam-dhirga-surya",
    "lng": 98.673509,
    "lat": 3.585926
  },
  {
    "No": 32,
    "Id": "bfde6675-2a80-4174-8d5d-3e8dcdba35c7",
    "Hospital": "Siloam Hospitals Paal Dua",
    "Hospital_2": null,
    "Alias": "SHPD",
    "Address": "Jl. Yos Sudarso No.38-40, Paal Dua, Kec. Paal Dua, Kota Manado, Sulawesi Utara",
    "District": "Paal Dua",
    "City": "Manado",
    "Province": "Sulawesi Utara",
    "Slug": "siloam-hospitals-paal-dua-manado",
    "lng": 124.862206,
    "lat": 1.489783
  },
  {
    "No": 33,
    "Id": "c60ae294-df89-47f8-9f44-a8748c55c09f",
    "Hospital": "Siloam Hospitals Palangkaraya",
    "Hospital_2": null,
    "Alias": "SHPR",
    "Address": "KM 4, Jl. RTA Milono No.425, Langkai, Kec. Pahandut, Kota Palangka Raya, Kalimantan Tengah 73111",
    "District": "Pahandut",
    "City": "Palangka Raya",
    "Province": "Kalimantan Tengah",
    "Slug": "siloam-hospitals-palangka-raya",
    "lng": 113.920092,
    "lat": -2.242368
  },
  {
    "No": 34,
    "Id": "4a58cc8e-9b63-44b5-80e7-2cdd7d10d53a",
    "Hospital": "Siloam Hospitals Purwakarta",
    "Hospital_2": null,
    "Alias": "SHPW",
    "Address": "Jl. Raya Bungursari No.1, Cibening, Kec. Bungursari, Kabupaten Purwakarta, Jawa Barat 41181",
    "District": "Bungursari",
    "City": "Purwakarta",
    "Province": "Jawa Barat",
    "Slug": "siloam-hospitals-purwakarta",
    "lng": 107.476782,
    "lat": -6.488729
  },
  {
    "No": 35,
    "Id": "104188b7-476f-49e8-a100-cb4479a2e284",
    "Hospital": "Siloam Hospitals Putera Bahagia",
    "Hospital_2": "RUMAH SAKIT PUTERA BAHAGIA",
    "Alias": "SHCB",
    "Address": "Jl. Ciremai Raya 114, Cirebon",
    "District": "Harjamukti",
    "City": "Cirebon",
    "Province": "Jawa Barat",
    "Slug": "rumah-sakit-putera-bahagia",
    "lng": 108.56291,
    "lat": -6.7465
  },
  {
    "No": 36,
    "Id": "ae36a207-6b3e-4a8f-a693-43db92302e10",
    "Hospital": "Siloam Hospitals Semarang",
    "Hospital_2": null,
    "Alias": "SHSR",
    "Address": "Jl. Kompol Maksum No.296, Peterongan, Kec. Semarang Sel., Kota Semarang, Jawa Tengah 50242",
    "District": "Peterongan",
    "City": "Semarang",
    "Province": "Jawa Tengah",
    "Slug": "siloam-hospitals-semarang",
    "lng": 110.433966,
    "lat": -6.999052
  },
  {
    "No": 37,
    "Id": "dcf63376-ed54-4b73-ba93-e84f3f215d4b",
    "Hospital": "Siloam Hospitals Sentosa",
    "Hospital_2": null,
    "Alias": "SHST",
    "Address": "Jl. Pahlawan No.60, RT.006/RW.004, Aren Jaya, Kec. Bekasi Tim., Kota Bks, Jawa Barat 17111",
    "District": "Duren Jaya",
    "City": "Bekasi",
    "Province": "Jawa Barat",
    "Slug": "siloam-hospitals-sentosa",
    "lng": 107.026547,
    "lat": -6.24269
  },
  {
    "No": 38,
    "Id": "deb78250-e156-4f62-b548-a648cf718bf2",
    "Hospital": "Siloam Hospitals Surabaya",
    "Hospital_2": null,
    "Alias": "SHSB",
    "Address": "Jl. Raya Gubeng No.70, Gubeng, Kec. Gubeng, Kota SBY, Jawa Timur 60281",
    "District": "Gubeng",
    "City": "Surabaya",
    "Province": "Jawa Timur",
    "Slug": "siloam-hospitals-surabaya",
    "lng": 112.746518,
    "lat": -7.27405
  },
  {
    "No": 39,
    "Id": "561686b8-383e-45d9-97e6-b97e3d5ef492",
    "Hospital": "Siloam Hospitals TB Simatupang",
    "Hospital_2": null,
    "Alias": "SHTB",
    "Address": "Jl. RA. Kartini No. 8, Cilandak Jakarta Selatan",
    "District": "Cilandak",
    "City": "Jakarta Selatan",
    "Province": "DKI Jakarta",
    "Slug": "siloam-hospitals-tb-simatupang",
    "lng": 106.784308,
    "lat": -6.2924
  },
  {
    "No": 40,
    "Id": "8c09908a-2eb3-4e5e-a7d3-ab2400df0b82",
    "Hospital": "Siloam Hospitals Yogyakarta",
    "Hospital_2": null,
    "Alias": "SHYG",
    "Address": "Jl. Laksda Adisucipto No.32-34, Demangan, Kec. Gondokusuman, Kota Yogyakarta, Daerah Istimewa Yogyakarta 55221",
    "District": "Demangan Gondokusuman",
    "City": "Yogyakarta",
    "Province": "Daerah Istimewa Yogyakarta",
    "Slug": "rumah-sakit-siloam-yogyakarta",
    "lng": 110.390876,
    "lat": -7.783438
  },
  {
    "No": 41,
    "Id": "7b16ee07-7f87-4b78-b019-c0415454a5db",
    "Hospital": "Siloam Sriwijaya Palembang",
    "Hospital_2": "Siloam Sriwijaya",
    "Alias": "SHPL",
    "Address": "Jl. POM IX, Lorok Pakjo, Kec. Ilir Bar. I, Kota Palembang, Sumatera Selatan 30137",
    "District": "Ilir Bar. I",
    "City": "Palembang",
    "Province": "Sumatera Selatan",
    "Slug": "siloam-sriwijaya-palembang",
    "lng": 104.742397,
    "lat": -2.977538
  }
]